{"type": "FeatureCollection", "totalFeatures": 14, "features": [{"type": "Feature", "id": "1", "geometry": {"type": "Point", "coordinates": [-6.088750004783118, 9.507123702283526]}, "geometry_name": "the_geom", "properties": {"ID": 1090100144, "Station": "Seguekielle", "Stream": "Bandama", "Basin__km2": 368, "GEOGLOWSID": 7052192}}, {"type": "Feature", "id": "2", "geometry": {"type": "Point", "coordinates": [-5.606329568653722, 9.742083344142719]}, "geometry_name": "the_geom", "properties": {"ID": 1090100155, "Station": "Tawara_Amont", "Stream": "Bandama", "Basin__km2": 5375, "GEOGLOWSID": 7051308}}, {"type": "Feature", "id": "3", "geometry": {"type": "Point", "coordinates": [-5.519583338204834, 8.759583344996758]}, "geometry_name": "the_geom", "properties": {"ID": 1090100160, "Station": "Tortiya_Amont", "Stream": "Bandama", "Basin__km2": 14500, "GEOGLOWSID": 7054295}}, {"type": "Feature", "id": "4", "geometry": {"type": "Point", "coordinates": [-5.425142607836569, 8.102916678471823]}, "geometry_name": "the_geom", "properties": {"ID": 1090100139, "Station": "Marabadiassa", "Stream": "Bandama", "Basin__km2": 22293, "GEOGLOWSID": 7056365}}, {"type": "Feature", "id": "5", "geometry": {"type": "Point", "coordinates": [-5.306792883437616, 6.504292899046287]}, "geometry_name": "the_geom", "properties": {"ID": 1090100136, "Station": "Kimoukro", "Stream": "Bandama", "Basin__km2": 2260, "GEOGLOWSID": 7060535}}, {"type": "Feature", "id": "6", "geometry": {"type": "Point", "coordinates": [-4.913750005520607, 6.015416678961123]}, "geometry_name": "the_geom", "properties": {"ID": 1090100109, "Station": "Bafecao", "Stream": "Bandama", "Basin__km2": 27100, "GEOGLOWSID": 7060535}}, {"type": "Feature", "id": "7", "geometry": {"type": "Point", "coordinates": [-4.686250005120585, 7.810452828283349]}, "geometry_name": "the_geom", "properties": {"ID": 1090102509, "Station": "Fetekro", "Stream": "Nzi", "Basin__km2": 10000, "GEOGLOWSID": 7056949}}, {"type": "Feature", "id": "8", "geometry": {"type": "Point", "coordinates": [-4.351474756387914, 7.434358604084839]}, "geometry_name": "the_geom", "properties": {"ID": 1090102512, "Station": "Mbahiakro", "Stream": "Nzi", "Basin__km2": 15700, "GEOGLOWSID": 7057887}}, {"type": "Feature", "id": "9", "geometry": {"type": "Point", "coordinates": [-4.513738869455733, 7.0454055878962265]}, "geometry_name": "the_geom", "properties": {"ID": 1090102503, "Station": "Bocanda", "Stream": "Nzi", "Basin__km2": 20500, "GEOGLOWSID": 7058845}}, {"type": "Feature", "id": "10", "geometry": {"type": "Point", "coordinates": [-4.7089804269254625, 6.637313769090849]}, "geometry_name": "the_geom", "properties": {"ID": 1090102506, "Station": "Dimbokro", "Stream": "Nzi", "Basin__km2": 24100, "GEOGLOWSID": 7059900}}, {"type": "Feature", "id": "11", "geometry": {"type": "Point", "coordinates": [-4.817579378412886, 5.999087307452528]}, "geometry_name": "the_geom", "properties": {"ID": 1090102515, "Station": "Nzianouan_-zienoa-", "Stream": "Nzi", "Basin__km2": 35000, "GEOGLOWSID": 7061641}}, {"type": "Feature", "id": "12", "geometry": {"type": "Point", "coordinates": [-6.305416671402999, 8.124764706012606]}, "geometry_name": "the_geom", "properties": {"ID": 1090101009, "Station": "Mankono", "Stream": "Marahoue", "Basin__km2": 6700, "GEOGLOWSID": 7056204}}, {"type": "Feature", "id": "13", "geometry": {"type": "Point", "coordinates": [-6.253750004954801, 7.8319706387964185]}, "geometry_name": "the_geom", "properties": {"ID": 1090101003, "Station": "Rte_Beoumi-Seguela", "Stream": "Marahoue", "Basin__km2": 12530, "GEOGLOWSID": 7056862}}, {"type": "Feature", "id": "14", "geometry": {"type": "Point", "coordinates": [-5.757916671486701, 6.964583345897361]}, "geometry_name": "the_geom", "properties": {"ID": 1090101006, "Station": "Bouafle", "Stream": "Marahoue", "Basin__km2": 19800, "GEOGLOWSID": 7059094}}], "crs": {"type": "name", "properties": {"name": "urn:ogc:def:crs:EPSG::4326"}}}